{"version":0.6,"generator":"Overpass API 0.7.62.11 87bfad18","osm3s":{"timestamp_osm_base":"2026-06-29T22:27:29Z","copyright":"The data included in this document is from www.openstreetmap.org. The data is made available under ODbL."},"elements":[{"type":"node","id":276520080,"lat":56.2709201,"lon":12.5292863,"tags":{"created_by":"Potlatch 0.9c","tourism":"caravan_site"}},{"type":"node","id":431825174,"lat":56.2719435,"lon":13.8947791,"tags":{"cabins":"6","caravans":"yes","name":"Lursjöbadets Camping","tents":"yes","tourism":"camp_site","website":"https://www.lursjonscamping.com/"}},{"type":"node","id":431825213,"lat":55.7703,"lon":12.92622,"tags":{"caravans":"yes","drinking_water":"yes","name":"Barsebäck Camping & Stugby","phone":"+46 4677 14 03","power_supply":"yes","reservation":"yes","sanitary_dump_station":"yes","shower":"yes","static_caravans":"yes","tents":"yes","toilets":"yes","tourism":"camp_site","website":"https://www.barsebackstrandscamping.se"}},{"type":"node","id":431825218,"lat":55.8497063,"lon":13.5871449,"tags":{"addr:city":"Hörby","addr:country":"SE","addr:housenumber":"2","addr:postcode":"242 93","addr:street":"Brovägen","caravans":"yes","email":"info@ringsjostrand.se","name":"Ringsjöstrands Camping","phone":"+46 415 105 67","tourism":"camp_site","website":"https://www.ringsjostrand.se/"}},{"type":"node","id":431825274,"lat":55.6894813,"lon":13.1716931,"tags":{"caravans":"yes","drinking_water":"yes","name":"Källby Friluftsbad & Camping","power_supply":"yes","sanitary_dump_station":"yes","shower":"yes","tents":"yes","toilets":"yes","tourism":"camp_site","website":"https://lund.se/uppleva-och-gora/natur-lekplatser-och-parker/camping","wheelchair":"yes"}},{"type":"node","id":987825401,"lat":56.2336757,"lon":14.6862304,"tags":{"addr:city":"Olofström","addr:housenumber":"258","addr:postcode":"293 93","addr:province":"Olofströms kommun","addr:street":"Ugglebodavägen","camp_site":"serviced","capacity:caravans":"62","capacity:tents":"40","caravans":"yes","fee":"yes","name":"Ljuvadal Camping & Upplevelser","phone":"+46 76 025 68 98","tents":"yes","tourism":"camp_site","website":"https://www.ljuvadal.se/"}},{"type":"node","id":1370122594,"lat":56.1027816,"lon":14.3870208,"tags":{"access":"private","capacity":"125","caravans":"yes","contact:email":"sondremark@caravanclub.se","contact:fax":"+46 44 52094","contact:phone":"+46 44 52094","contact:website":"http://caravanclub.se/","dog":"yes","internet_access":"wlan","name":"Caravan Club Söndremark","power_supply:maxcurrent":"10","source:info":"caravanclub.se","source:location":"survey","tents":"yes","tourism":"camp_site","wheelchair":"yes"}},{"type":"node","id":1642845768,"lat":55.746333,"lon":12.5866369,"tags":{"camp_site":"serviced","caravans":"yes","drinking_water":"yes","email":"info@campingcopenhagen.dk","fee":"yes","internet_access":"wlan","motor_vehicle":"yes","name":"Charlottenlund Fort Camping","phone":"+45 68 54 74 123","power_supply":"yes","sanitary_dump_station":"yes","shower":"yes","tents":"yes","toilets":"yes","tourism":"camp_site","website":"https://campingcopenhagen.dk/"}},{"type":"node","id":1642845776,"lat":55.7454694,"lon":12.5864652,"tags":{"caravan_site":"motorhome_stopover","caravan_site:type":"fortress","charge":"DKK 100 + 120/pax","drinking_water":"yes","fee":"yes","laundry":"yes","name":"Charlottenlund fort","operator":"Charlottenlund Fort Camping","power_supply":"yes","sanitary_dump_station":"yes","seasonal":"yes","tents":"no","toilets":"yes","tourism":"caravan_site","website":"https://campingcopenhagen.dk/camping/"}},{"type":"node","id":1896620021,"lat":56.5799966,"lon":14.1531143,"tags":{"amenity":"parking","name":"Destination Möckeln","tourism":"caravan_site"}},{"type":"node","id":2123045101,"lat":56.0664874,"lon":14.4552344,"tags":{"amenity":"sanitary_dump_station","description":"Tömmning av fasta tankar","fee":"no"}},{"type":"node","id":2405963671,"lat":56.2362348,"lon":12.6554361,"tags":{"cabins":"no","capacity":"100","caravans":"yes","dog":"yes","drinking_water":"yes","name":"Bläsinge Gård Camping","power_supply":"yes","shower":"yes","tents":"yes","tourism":"camp_site"}},{"type":"node","id":4208482892,"lat":55.4071231,"lon":13.6060559,"tags":{"name":"Abbekås","tourism":"caravan_site"}},{"type":"node","id":4271602498,"lat":55.5680335,"lon":14.3375475,"tags":{"amenity":"sanitary_dump_station"}},{"type":"node","id":5060938527,"lat":56.2681841,"lon":12.8429854,"tags":{"fee":"yes","power_supply":"yes","tourism":"caravan_site"}},{"type":"node","id":5060938528,"lat":56.2672428,"lon":12.8421646,"tags":{"amenity":"sanitary_dump_station","sanitary_dump_station:gravity":"yes","sanitary_dump_station:grey_water":"yes"}},{"type":"node","id":5196233941,"lat":55.3540642,"lon":13.2427209,"tags":{"access":"customers","addr:city":"Trelleborg","addr:country":"SE","addr:housenumber":"2","addr:postcode":"231 92","addr:street":"Hummervägen","capacity:caravans":"28","caravans":"yes","drinking_water":"yes","name":"Camping Nybostrand","power_supply":"yes","sanitary_dump_station":"yes","shower":"yes","tents":"yes","toilets":"yes","tourism":"camp_site","website":"https://nybostrand.se/"}},{"type":"node","id":5765855331,"lat":55.3913653,"lon":14.1099885,"tags":{"bbq":"yes","caravan_site":"motorhome_stopover","caravan_site:type":"beach","caravans":"yes","check_out":"14:00","fee":"yes","internet_access":"wlan","name":"Solans Mack","phone":"+46 732469494","power_supply":"yes","power_supply:capacity":"40","sanitary_dump_station":"yes","sanitary_dump_station:chemical_toilet":"yes","sanitary_dump_station:grey_water":"yes","shower":"yes","toilets":"yes","tourism":"caravan_site","water_point":"yes","website":"https://test.solans.se/stallplatser/","wheelchair":"no"}},{"type":"node","id":5766545838,"lat":55.6069591,"lon":14.2346059,"tags":{"caravan_site":"motorhome_stopover","caravan_site:type":"countryside","caravans":"yes","charge":"200 SEK","fee":"yes","name":"Ekogården","power_supply":"yes","power_supply:charge":"50 SEK","power_supply:fee":"yes","tourism":"caravan_site","website":"https://ekogarden.org/"}},{"type":"node","id":5781707810,"lat":56.2861331,"lon":13.3393333,"tags":{"tourism":"caravan_site"}},{"type":"node","id":6462155541,"lat":56.3528843,"lon":12.741643,"tags":{"capacity":"10","fee":"no","internet_access":"no","name":"Ranarpstrand","tourism":"caravan_site"}},{"type":"node","id":7486872011,"lat":55.7931962,"lon":13.1536596,"tags":{"drinking_water":"yes","email":"kansli@kavlingegk.se","fee":"yes","name":"Åboda","phone":"+4646736270","power_supply":"yes","sanitary_dump_station":"no","toilets":"yes","tourism":"caravan_site","website":"https://kavlingegk.se/"}},{"type":"node","id":8999513756,"lat":56.4014605,"lon":14.6644933,"tags":{"description:de":"ruhig am Damm 5€ stehen 5€ Strom","tourism":"caravan_site"}},{"type":"node","id":9071275058,"lat":56.3939128,"lon":14.0352543,"tags":{"access":"yes","amenity":"sanitary_dump_station","fee":"no","sanitary_dump_station:basin":"yes"}},{"type":"node","id":9422958620,"lat":56.0321559,"lon":13.6218566,"tags":{"capacity":"8","internet_access":"no","name":"Honungsfarmens ställplats","power_supply":"yes","sanitary_dump_station":"yes","tourism":"caravan_site"}},{"type":"node","id":9866224706,"lat":56.3687253,"lon":13.9843739,"tags":{"capacity":"6","fee":"no","internet_access":"no","power_supply":"no","reservation":"no","sanitary_dump_station":"no","tourism":"caravan_site"}},{"type":"node","id":9867656545,"lat":55.99709,"lon":14.4449496,"tags":{"addr:street":"Bodavägen","capacity":"25","contact:website":"https://www.tallyweb.dk/tostebergahamn/home","drinking_water":"yes","fee":"yes","internet_access":"no","name":"Tosteberga Hamn","power_supply":"yes","reservation":"no","sanitary_dump_station":"no","tents":"yes","toilets":"yes","tourism":"caravan_site","wheelchair":"limited"}},{"type":"node","id":9868854294,"lat":56.3575674,"lon":12.8400205,"tags":{"addr:city":"Förslöv","addr:country":"SE","addr:housenumber":"52","addr:postcode":"269 73","addr:street":"Hålevägen","capacity:caravans":"5","fee":"50 SEK","internet_access":"no","power_supply":"no","sanitary_dump_station":"no","tourism":"caravan_site"}},{"type":"node","id":9877683139,"lat":55.3738246,"lon":13.1339662,"tags":{"access":"permit","amenity":"sanitary_dump_station","water_point":"yes"}},{"type":"node","id":9952396267,"lat":56.0414852,"lon":12.6148838,"tags":{"access":"yes","amenity":"sanitary_dump_station","fee":"no","sanitary_dump_station:chemical_toilet":"yes","sanitary_dump_station:grey_water":"no"}},{"type":"node","id":10581847051,"lat":55.5895281,"lon":12.6769835,"tags":{"capacity":"5","description":"Get entrance card from the machine at the harbor master in the old port","fee":"yes","name":"Dragør Lystbådehavn - Autocampere","phone":"+45 32891570","power_supply":"yes","sanitary_dump_station":"yes","seasonal":"summer","tourism":"caravan_site"}},{"type":"node","id":10581879810,"lat":55.6139356,"lon":12.3980445,"tags":{"caravan_site":"motorhome_stopover","caravan_site:type":"harbour","caravans":"no","charge":"210 DKK","fee":"yes","name":"Vallensbæk Havn","power_supply":"yes","sanitary_dump_station":"customers","tents":"no","toilets":"no","tourism":"caravan_site","website":"https://vhkb.dk/gaestesejlere/"}},{"type":"node","id":10799199451,"lat":55.5935278,"lon":12.3561472,"tags":{"caravan_site:type":"harbour","caravans":"no","charge":"DKK 150","description":"Der må holdes på hele havneøen, dog ikke inden for bommene.","fee":"yes","name":"Hejren Greve","permanent_camping":"no","tents":"no","toilets":"yes","tourism":"caravan_site","website":"https://greve-marina.dk/hejren/index.php/autocamper-pa-hejren"}},{"type":"node","id":10934142418,"lat":55.5840958,"lon":12.9199208,"tags":{"access":"customers","addr:street":"Bryggövägen","amenity":"sanitary_dump_station","opening_hours":"24/7","operator":"Småbåtshamnen i Limhamn AB","sanitary_dump_station:basin":"yes","sanitary_dump_station:round_drain":"yes"}},{"type":"node","id":10947329170,"lat":56.0033481,"lon":14.7372059,"tags":{"access":"customers","addr:city":"Sölvesborg","addr:country":"SE","addr:postcode":"294 95","addr:street":"Östra Hamnvägen","amenity":"sanitary_dump_station","charge":"50 SKR / 0 SKR","fee":"yes","name":"Ställplats Nogersunds Hamn","phone":"+46 70 272 86 02","sanitary_dump_station:gravity":"yes","website":"https://www.tallyweb.dk/nogersundshamn"}},{"type":"node","id":10983016819,"lat":56.1278186,"lon":13.1249716,"tags":{"access":"yes","addr:street":"Fabriksvägen","amenity":"sanitary_dump_station","fee":"no","opening_hours":"24/7","sanitary_dump_station:basin":"yes","sanitary_dump_station:round_drain":"yes"}},{"type":"node","id":11063286430,"lat":56.0787553,"lon":13.3048087,"tags":{"access":"yes","caravans":"yes","picnic_table":"yes","power_supply":"no","shower":"no","tents":"yes","tourism":"camp_site"}},{"type":"node","id":11069700356,"lat":55.5969804,"lon":12.3565963,"tags":{"caravan_site:type":"harbour","caravans":"no","charge":"DKK 125","fee":"yes","name":"Mågen Greve Marina","permanent_camping":"no","tents":"no","toilets":"yes","tourism":"caravan_site","website":"https://greve-marina.dk/hejren/index.php/autocamper-pa-hejren"}},{"type":"node","id":11069850835,"lat":56.0409601,"lon":12.6156414,"tags":{"bbq":"yes","caravan_site:type":"harbour","caravans":"no","charge":"DKK 195","fee":"yes","internet_access":"wlan","laundry":"yes","maxstay":"7 nights","name":"Helsingør Nordhavn","opening_hours":"Jun-Sep","power_supply":"yes","reservation":"no","sanitary_dump_station":"yes","tents":"no","tourism":"caravan_site","water_point":"yes","website":"https://www.helsingor-havne.dk/oplevelser-paa-havnene/autocampere/"}},{"type":"node","id":11071208903,"lat":55.9384804,"lon":12.5273336,"tags":{"bbq":"yes","bicycle_rental":"yes","caravan_site":"motorhome_stopover","caravan_site:type":"harbour","caravans":"no","charge":"220 DKK","fee":"yes","internet_access":"wlan","laundry":"yes","name":"Nivå Havn","power_supply":"yes","power_supply:fee":"no","reservation":"no","sanitary_dump_station":"yes","sanitary_dump_station:chemical_toilet":"yes","shower":"yes","tents":"no","toilets":"yes","tourism":"caravan_site","water_point":"yes","water_point:fee":"no","website":"https://nivaahavn.fredensborg.dk/gaester-nivaa-havn-og-strandpark/velkommen-til-campere"}},{"type":"node","id":11071208904,"lat":55.5930293,"lon":12.6781717,"tags":{"charge":"DKK 200","fee":"yes","name":"Dragør Havn","tourism":"caravan_site"}},{"type":"node","id":11092870050,"lat":55.5372103,"lon":13.0132327,"tags":{"capacity":"20","fee":"150SEK, 15€","name":"Ellygården","sanitary_dump_station":"no","tourism":"caravan_site"}},{"type":"node","id":11097698957,"lat":56.5884378,"lon":14.6988205,"tags":{"access":"customers","amenity":"sanitary_dump_station","fee":"yes","opening_hours":"24/7","operator":"Getnö Gård","sanitary_dump_station:basin":"yes","sanitary_dump_station:round_drain":"yes"}},{"type":"node","id":11158696399,"lat":55.3970503,"lon":12.865266,"tags":{"access":"customers","amenity":"sanitary_dump_station","fee":"no"}},{"type":"node","id":11223627179,"lat":55.5957678,"lon":12.9325313,"tags":{"amenity":"sanitary_dump_station","fee":"yes","water_point":"yes"}},{"type":"node","id":11239659996,"lat":56.0634955,"lon":14.4959751,"tags":{"access":"yes","amenity":"sanitary_dump_station","fee":"no","water_point":"yes"}},{"type":"node","id":11961073589,"lat":55.6260319,"lon":13.7770835,"tags":{"caravan_site":"motorhome_stopover","caravan_site:type":"farm_shop","caravans":"yes","charge":"200 SEK","fee":"yes","power_supply":"yes","power_supply:capacity":"8","power_supply:charge":"50 SEK","power_supply:fee":"yes","tourism":"caravan_site"}},{"type":"node","id":11961651668,"lat":55.7934219,"lon":13.8211146,"tags":{"capacity":"4","fee":"yes","name":"Lavendelgården","tourism":"caravan_site"}},{"type":"node","id":11961657405,"lat":55.4916425,"lon":14.1113698,"tags":{"caravan_site":"motorhome_stopover","caravan_site:type":"guest_house","name":"B&B Hannasa Gard","power_supply":"yes","tourism":"caravan_site"}},{"type":"node","id":11962389951,"lat":55.5926307,"lon":14.2232904,"tags":{"charge":"150 SEK","fee":"yes","name":"Torna ställplats","operator":"Gyllebo IF","power_supply":"yes","power_supply:charge":"50 SEK","power_supply:fee":"yes","sanitary_dump_station":"yes","shower":"yes","toilets":"yes","tourism":"caravan_site","water_point":"yes","website":"https://www.svenskalag.se/gylleboif-tornastallplats"}},{"type":"node","id":11971791774,"lat":55.554629,"lon":14.3572657,"tags":{"amenity":"parking","motorhome":"designated","opening_hours":"Mo-Su 06:00-22:00"}},{"type":"node","id":11978439905,"lat":56.0506243,"lon":13.366735,"tags":{"addr:housenumber":"4114","addr:street":"Färingtofta","description":"forest sideroad","fee":"yes","kartaview":"https://storage13.openstreetcam.org/files/photo/2024/6/12/proc/9032313_efd5deaa474a9edb9ae80d182e43d049.jpg","name":"Rödhakens Ställplats","name:de":"Rödhakens Stellplatz","opening_hours":"24/7","phone":"+467064106 43","power_supply":"no","sanitary_dump_station":"no","toilets":"no","tourism":"caravan_site","water_point":"no","website":"https://www.campercontact.com/en/sweden/skane-county/faringtofta/97187/rodhaken"}},{"type":"node","id":12081366102,"lat":55.9409827,"lon":12.515825,"tags":{"access":"customers","amenity":"sanitary_dump_station","fee":"no","sanitary_dump_station:basin":"yes"}},{"type":"node","id":12139032351,"lat":55.363255,"lon":13.2088011,"tags":{"access":"customers","amenity":"sanitary_dump_station","operator":"Trelleborg Strand"}},{"type":"node","id":12145736013,"lat":55.6892554,"lon":13.0573315,"tags":{"amenity":"sanitary_dump_station","fee":"no"}},{"type":"node","id":12335600081,"lat":56.2069471,"lon":13.107971,"tags":{"access":"yes","amenity":"sanitary_dump_station","fee":"no","water_point":"yes"}},{"type":"node","id":12879399396,"lat":55.5277713,"lon":14.068079,"tags":{"caravan_site":"motorhome_stopover","caravan_site:type":"horse_riding_center","charge":"250 SEK","fee":"yes","name":"Hälldala Ranch","phone":"+46 708450150","power_supply":"yes","power_supply:charge":"50 SEK","sanitary_dump_station":"yes","seasonal":"no","shower":"yes","toilets":"yes","tourism":"caravan_site","water_point":"yes","website":"https://www.halldalaranch.se/"}},{"type":"node","id":12895150952,"lat":56.2076341,"lon":14.2490758,"tags":{"amenity":"sanitary_dump_station","sanitary_dump_station:chemical_toilet":"yes","sanitary_dump_station:fee":"no","sanitary_dump_station:gravity":"no","sanitary_dump_station:grey_water":"no","sanitary_dump_station:suction":"no"}},{"type":"node","id":12899507413,"lat":56.3524741,"lon":14.5923393,"tags":{"addr:city":"Kyrkhult","addr:housenumber":"321","addr:postcode":"290 60","addr:province":"Olofströms kommun","addr:street":"Morins väg","fee":"donation","name":"Södersjön ställplats","tourism":"caravan_site"}},{"type":"node","id":12899507414,"lat":55.9992999,"lon":14.6479516,"tags":{"addr:city":"Sölvesborg","addr:housenumber":"41","addr:postcode":"294 95","addr:province":"Sölvesborgs kommun","addr:street":"Torsö Hamn","capacity":"7","name":"Ställplats - Torsö gästhamn","power_supply":"yes","tourism":"caravan_site"}},{"type":"node","id":12899507415,"lat":56.0441139,"lon":14.6001059,"tags":{"addr:city":"Sölvesborg","addr:housenumber":"10","addr:postcode":"294 91","addr:province":"Sölvesborgs kommun","addr:street":"Ljunganabbevägen","name":"Ställplats - Sölvesborgs Golfklubb","tourism":"caravan_site"}},{"type":"node","id":12899507416,"lat":56.0051106,"lon":14.7390953,"tags":{"addr:city":"Sölvesborg","addr:country":"SE","addr:housenumber":"54","addr:postcode":"294 95","addr:province":"Sölvesborgs kommun","addr:street":"Hamnplan","name":"Ställplats - Nogersunds gästhamn","tourism":"caravan_site"}},{"type":"node","id":12899507418,"lat":56.0307705,"lon":14.6113577,"tags":{"addr:city":"Sölvesborg","addr:postcode":"294 91","addr:province":"Sölvesborgs kommun","addr:street":"Mossasträtet","name":"Fridas ställplats - Sandviken","tourism":"caravan_site"}},{"type":"node","id":12922763992,"lat":56.2246655,"lon":12.540935,"tags":{"access":"customers","amenity":"sanitary_dump_station","sanitary_dump_station:basin":"yes"}},{"type":"node","id":12924799238,"lat":55.8573771,"lon":12.8521385,"tags":{"amenity":"sanitary_dump_station","sanitary_dump_station:basin":"yes"}},{"type":"node","id":12943570675,"lat":55.9904475,"lon":12.7490729,"tags":{"fee":"yes","tourism":"caravan_site"}},{"type":"node","id":12993793832,"lat":56.198551,"lon":12.7006809,"tags":{"amenity":"sanitary_dump_station","fee":"no","sanitary_dump_station:basin":"yes"}},{"type":"node","id":13026306086,"lat":56.3870748,"lon":13.1087997,"tags":{"internet_access":"wlan","name":"Vallåsen","power_supply":"yes","sanitary_dump_station":"yes","survey:date":"2025-07-26","tourism":"caravan_site","website":"https://vallasen.se/"}},{"type":"node","id":13050035683,"lat":55.613351,"lon":12.3960399,"tags":{"tourism":"caravan_site"}},{"type":"node","id":13090504243,"lat":55.6581398,"lon":12.5506835,"tags":{"fee":"yes","name":"Urban Camp Copenhagen","note":"summer only, usually from mid of June until end of September","power_supply":"yes","sanitary_dump_station":"yes","shower":"yes","toilets":"yes","tourism":"caravan_site","wlan":"yes"}},{"type":"node","id":13350911850,"lat":55.3889139,"lon":14.0626019,"tags":{"access":"customers","amenity":"sanitary_dump_station","fee":"no","indoor":"yes","sanitary_dump_station:basin":"yes"}},{"type":"node","id":13969404112,"lat":56.1196943,"lon":14.6704521,"tags":{"access":"yes","addr:city":"Sölvesborg","addr:housenumber":"21","addr:postcode":"294 76","addr:street":"Norjevägen","camp_site":"serviced","caravans":"yes","fee":"yes","name":"Gurkans Camping","operator":"Gurkans Camping AB","tents":"no","tourism":"camp_site"}},{"type":"way","id":26180979,"center":{"lat":55.6721481,"lon":12.4314388},"tags":{"camp_site":"serviced","caravans":"yes","drinking_water":"yes","email":"copenhagen@dcu.dk","fee":"yes","motor_vehicle":"yes","name":"DCU-Copenhagen Camp \"Absalon\"","phone":"+45 36 41 06 00","power_supply":"yes","sanitary_dump_station":"yes","shower":"yes","tents":"yes","toilets":"yes","tourism":"camp_site","website":"https://www.dcu.dk/campingplads/dcu-copenhagen-camp-absalon","wikimedia_commons":"Category:DCU-Camping København-Absalon"}},{"type":"way","id":32657394,"center":{"lat":55.8081381,"lon":12.5299974},"tags":{"camp_site":"serviced","caravans":"yes","fee":"yes","fvst:navnelbnr":"982331","motor_vehicle":"yes","name":"DCU-Camping Nærum","ref:DK:cvr":"43387014","tents":"yes","tourism":"camp_site","website":"https://www.dcu.dk/campingplads/dcu-camping-naerum"}},{"type":"way","id":54202019,"center":{"lat":55.3981976,"lon":12.863371},"tags":{"access":"customers","addr:city":"Falsterbo","addr:country":"SE","addr:housenumber":"1","addr:postcode":"239 42","addr:street":"Reutersvärds väg","cabins":"yes","camp_site":"serviced","caravans":"yes","drinking_water":"yes","email":"info@falsterboresort.se","fee":"yes","hot_water":"yes","internet_access":"yes","internet_access:fee":"customers","motor_vehicle":"yes","name":"Falsterbo Camping & Resort","old_name":"Ljungens camping","payment:credit_cards":"yes","phone":"+46 40 6024020","power_supply":"yes","reservation":"yes","shower":"yes","tents":"yes","toilets":"yes","toilets:wheelchair":"yes","tourism":"camp_site","website":"https://falsterboresort.se/","wheelchair":"yes"}},{"type":"way","id":82596599,"center":{"lat":55.3633274,"lon":13.2091935},"tags":{"addr:city":"Trelleborg","addr:country":"SE","addr:housenumber":"2","addr:postcode":"231 32","addr:street":"Dalköpinge strandväg","backcountry":"no","caravans":"yes","check_date":"2024-08-26","drinking_water":"yes","email":"info@trelleborgstrand.se","fee":"yes","internet_access":"wlan","internet_access:fee":"customers","name":"Trelleborg Strand","payment:cash":"no","payment:girocard":"yes","payment:mastercard":"yes","payment:mastercard_contactless":"yes","payment:visa":"yes","payment:visa_contactless":"yes","phone":"+46 410 301 770","power_supply":"yes","sanitary_dump_station":"yes","shower":"yes","source":"survey","stars":"3","tents":"yes","toilets":"yes","tourism":"camp_site","website":"https://trelleborgstrand.se","wheelchair":"yes"}},{"type":"way","id":83206938,"center":{"lat":55.377054,"lon":13.469371},"tags":{"cabins":"no","caravans":"yes","drinking_water":"yes","email":"info@skateholmscamping.com","name":"Skateholms Camping","phone":"+46 41025571","power_supply":"yes","sanitary_dump_station":"yes","shower":"yes","tents":"no","toilets":"yes","tourism":"camp_site","website":"https://skateholmscamping.com/"}},{"type":"way","id":83526546,"center":{"lat":55.381719,"lon":14.1291571},"tags":{"addr:city":"Löderup","addr:country":"SE","addr:housenumber":"64","addr:postcode":"27177","addr:street":"Östänvägen","caravans":"yes","fax":"+46 411 52 66 13","motorhome":"yes","name":"Löderups Strandbads camping","phone":"+46 411 14 111","tents":"yes","toilets":"yes","tourism":"camp_site","website":"https://www.loderupscamping.se/","wheelchair":"limited"}},{"type":"way","id":83557737,"center":{"lat":55.4336304,"lon":13.8643634},"tags":{"addr:city":"Ystad","addr:country":"SE","addr:housenumber":"97","addr:postcode":"27160","addr:street":"Österleden","cabins":"yes","caravans":"yes","email":"info@ystadcamping.se","internet_access":"wlan","motorhome":"yes","name":"Ystad Camping","phone":"+46 411 192 70","shower":"yes","tents":"yes","toilets":"yes","tourism":"camp_site","website":"https://www.ystadcamping.se/","wheelchair":"yes"}},{"type":"way","id":83557750,"center":{"lat":55.4343868,"lon":13.9274988},"tags":{"caravans":"yes","email":"nybrostrand.camping@ystad.nu","name":"Nybrostrands camping","phone":"+46 411 55 12 63","tents":"yes","tourism":"camp_site","website":"https://nybrostrandscamping.n.nu/","wheelchair":"no"}},{"type":"way","id":83560181,"center":{"lat":55.4343969,"lon":14.2313532},"tags":{"caravans":"yes","email":"info@borrbystrandscamping.com","name":"Borrby strands camping","phone":"+46 411 52 12 60","sanitary_dump_station":"yes","tents":"yes","tourism":"camp_site","website":"https://www.borrbystrandscamping.com/"}},{"type":"way","id":83705032,"center":{"lat":56.0433778,"lon":12.604858},"tags":{"barrier":"fence","camp_site":"serviced","caravans":"yes","fee":"yes","motor_vehicle":"yes","name":"Helsingør Camping","panoramax":"c9ab62aa-2b1f-4546-80b4-ea8308b95a54","shower":"hot","tents":"yes","toilets":"yes","toilets:access":"customers","toilets:fee":"no","toilets:handwashing":"yes","toilets:paper_supplied":"yes","toilets:position":"seated;urinal","tourism":"camp_site","website":"https://www.helsingorcamping.dk/"}},{"type":"way","id":93265727,"center":{"lat":56.0979922,"lon":12.3952747},"tags":{"camp_site":"serviced","caravans":"yes","fee":"yes","motor_vehicle":"yes","name":"Dronningmølle Strandcamping","tents":"yes","tourism":"camp_site","website":"https://www.dronningmolle.com/"}},{"type":"way","id":103257751,"center":{"lat":55.5809123,"lon":12.6288612},"tags":{"barrier":"fence","camp_site":"serviced","caravans":"yes","dog":"yes","fee":"yes","fvst:navnelbnr":"116246","motor_vehicle":"yes","name":"Copenhagen Camping","operator":"TopCamp","phone":"+45 32942007","ref:DK:cvr":"29849501","ref:DK:cvr:pnummer":"1012571077","reservation":"yes","stars":"3","tents":"yes","tourism":"camp_site","website":"https://www.copenhagencamping.dk/"}},{"type":"way","id":107995736,"center":{"lat":56.3644287,"lon":13.9999525},"tags":{"FIXME":"survey needed","area":"yes","caravans":"yes","drinking_water":"yes","name":"Osby Camping","power_supply":"yes","shower":"yes","tents":"yes","tourism":"camp_site"}},{"type":"way","id":125163960,"center":{"lat":55.9417579,"lon":12.5150421},"tags":{"camp_site":"serviced","caravans":"yes","drinking_water":"yes","fee":"yes","fvst:navnelbnr":"1521853","motor_vehicle":"yes","name":"Nivå Camping","power_supply":"yes","ref:DK:cvr":"45794342","ref:DK:cvr:pnummer":"1031562291","sanitary_dump_station":"yes","shower":"yes","tents":"yes","toilets":"yes","tourism":"camp_site"}},{"type":"way","id":127555305,"center":{"lat":55.7806243,"lon":14.1978612},"tags":{"cabins":"yes","caravans":"yes","drinking_water":"yes","email":"info@rigelejestrand.se","name":"Rigeleje Strand Camping","phone":"+46 44 35 12 79","power_supply":"yes","shower":"yes","tents":"yes","toilets":"yes","tourism":"camp_site","website":"https://www.rigelejestrand.se/"}},{"type":"way","id":128544589,"center":{"lat":55.9418753,"lon":14.3124287},"tags":{"access":"customers","addr:city":"Åhus","addr:country":"SE","addr:housenumber":"201","addr:postcode":"296 33","addr:street":"Täppetleden","cabins":"yes","caravans":"yes","dog":"leashed","drinking_water":"yes","email":"ahus@firstcamp.se","fee":"yes","hot_water":"yes","internet_access":"wlan","kitchen":"yes","motor_vehicle":"yes","name":"First Camp Åhus - Kristianstad","openfire":"no","opening_hours":"Mo-Su 08:00-23:00","operator":"First Camp","payment:credit_cards":"yes","payment:debit_cards":"yes","phone":"+46 44 248969","power_supply":"yes","reservation":"yes","sanitary_dump_station":"yes","shop":"yes","shower":"yes","tents":"yes","toilets":"yes","tourism":"camp_site","washing_machine":"yes","website":"https://firstcamp.se/ahus/"}},{"type":"way","id":136919897,"center":{"lat":56.0000524,"lon":12.5173317},"tags":{"camp_site":"serviced","caravans":"yes","email":"info@nyrupcamping.dk","fee":"yes","fvst:navnelbnr":"965658","motor_vehicle":"yes","name":"Nyrup Camping","phone":"+45 49139103","ref:DK:cvr":"41624442","stars":"3","tents":"yes","tourism":"camp_site","website":"https://www.nyrupcamping.dk/"}},{"type":"way","id":142887137,"center":{"lat":56.0426467,"lon":12.4106867},"tags":{"camp_site":"serviced","caravans":"yes","fee":"yes","motor_vehicle":"yes","name":"Plejelt Camping","tents":"yes","tourism":"camp_site"}},{"type":"way","id":148013246,"center":{"lat":55.7702682,"lon":12.9258549},"tags":{"addr:city":"Barsebäck","addr:country":"SE","addr:housenumber":"123","addr:street":"Kustvägen","caravans":"yes","drinking_water":"yes","name":"Barsebäckstrands Camping","tents":"yes","tourism":"camp_site"}},{"type":"way","id":148013247,"center":{"lat":55.7708344,"lon":12.9278523},"tags":{"drinking_water":"yes","fee":"yes","name":"Barsebäckstrands Camping","power_supply":"yes","sanitary_dump_station":"yes","shower":"yes","toilets":"yes","tourism":"caravan_site"}},{"type":"way","id":169647599,"center":{"lat":56.0482526,"lon":12.6849099},"tags":{"addr:place":"Norra Hamnen","contact:website":"http://www.marinahelsingborg.se/stallplatser-husbil/","description":"Ställplatser Husbil","description:de":"Reisemobilstellplätze","drinking_water":"yes","fee":"yes","internet_access":"wlan","name":"Norra Hamnen Marina AB","operator":"Norra Hamnen Marina AB","power_supply":"yes","sanitary_dump_station":"customers","source":"http://www.marinahelsingborg.se/stallplatser-husbil/","tents":"no","toilets":"yes","tourism":"caravan_site"}},{"type":"way","id":202339379,"center":{"lat":56.0662801,"lon":14.4548745},"tags":{"addr:city":"Bromölla","addr:country":"SE","addr:housenumber":"6","addr:postcode":"295 38","addr:street":"Scoutvägen","caravans":"yes","drinking_water":"yes","email":"bromollacamping@telia.com","name":"Strandängens Camping & Vandrarhem","phone":"+46 456 25593","power_supply":"yes","sanitary_dump_station":"yes","shower":"yes","tents":"yes","toilets":"yes","tourism":"camp_site","website":"https://www.bromollacamping.se/","wheelchair":"yes"}},{"type":"way","id":203596701,"center":{"lat":56.110315,"lon":14.384663},"tags":{"caravans":"yes","contact:email":"reception@ivo-camping.nu","contact:phone":"+46 44 52188","contact:website":"http://ivo-camping.nu/","drinking_water":"yes","name":"Ivö Camping","power_supply":"yes","sanitary_dump_station":"yes","shower":"yes","tents":"yes","toilets":"yes","tourism":"camp_site"}},{"type":"way","id":205130559,"center":{"lat":56.5881402,"lon":14.6962916},"tags":{"addr:city":"Ryd","addr:country":"SE","addr:postcode":"360 10","addr:street":"Getnö Gård","alt_name":"Getnö Gård Naturcamping","caravans":"yes","check_date":"2025-06-25","contact:email":"info@getnogard.se","contact:fax":"+46 477 24049","contact:phone":"+46 477 24011","contact:website":"http://www.getnogard.se","drinking_water":"yes","fee":"yes","internet_access":"wlan","internet_access:fee":"customers","name":"Getnö Gård Lake Åsnen Resort","payment:cash":"yes","payment:credit_cards":"yes","payment:debit_cards":"yes","power_supply":"yes","sanitary_dump_station":"yes","shower":"yes","stars":"3","tents":"yes","toilets":"yes","tourism":"camp_site","wheelchair":"limited"}},{"type":"way","id":230896919,"center":{"lat":55.6088247,"lon":12.3815479},"tags":{"camp_site":"serviced","caravans":"yes","drinking_water":"yes","fee":"yes","fvst:navnelbnr":"636790","motor_vehicle":"yes","name":"Tangloppen Camping","operator":"Øvrige engros-kæder","power_supply":"yes","ref:DK:cvr":"36371153","ref:DK:cvr:pnummer":"1020540202","sanitary_dump_station":"yes","shower":"yes","tents":"yes","toilets":"yes","tourism":"camp_site","website":"https://www.tangloppencamping.dk/","wikidata":"Q112012833"}},{"type":"way","id":232227014,"center":{"lat":56.5267088,"lon":13.051836},"tags":{"caravans":"yes","name":"Lilla Tjärby Livs och Camping","phone":"+46 430 14390","shower":"yes","tents":"yes","toilets":"yes","tourism":"camp_site","website":"http://lillatjarby.se/campingen/"}},{"type":"way","id":239071242,"center":{"lat":55.9682468,"lon":12.4565881},"tags":{"backcountry":"no","camp_site":"serviced","caravans":"yes","dog":"yes","drinking_water":"yes","email":"info@fredensborgcamping.dk","fee":"yes","fvst:navnelbnr":"805300","internet_access":"no","motor_vehicle":"yes","name":"Fredensborg Camping","old_name":"Højsager Camping","phone":"+45 49 19 44","picnic_table":"yes","power_supply":"yes","ref:DK:cvr":"28155514","ref:DK:cvr:pnummer":"1024640538","reservation":"recommended","sanitary_dump_station":"yes","shower":"yes","tents":"yes","toilets":"yes","tourism":"camp_site","website":"https://www.fredensborgcamping.dk/"}},{"type":"way","id":239351886,"center":{"lat":56.0815393,"lon":12.5112604},"tags":{"camp_site":"deluxe","caravans":"yes","fee":"yes","fvst:navnelbnr":"1207984","motor_vehicle":"yes","name":"Nordsjællands Feriepark og Camping","ref:DK:cvr":"27277799","ref:DK:cvr:pnummer":"1010013859","swimming_pool":"yes","tents":"yes","tourism":"camp_site","website":"https://www.nord-camp.dk/"}},{"type":"way","id":239352734,"center":{"lat":56.0842482,"lon":12.4727397},"tags":{"alt_name":"Hornbæk Camping","camp_site":"serviced","caravans":"yes","fee":"yes","motor_vehicle":"yes","name":"Camping Provianten","tents":"yes","tourism":"camp_site"}},{"type":"way","id":244261940,"center":{"lat":55.4334572,"lon":12.8580499},"tags":{"camp_site":"deluxe","capacity:caravans":"70","capacity:tents":"10","caravans":"yes","name":"Solhejdans Naturistcamping","nudism":"designated","operator":"Naturistföreningen Svanrevet","phone":"+46 40 47 50 88","static_caravans":"no","tents":"yes","tourism":"camp_site","website":"https://solhejdan.se/camping/"}},{"type":"way","id":294060302,"center":{"lat":56.2073596,"lon":14.2493005},"tags":{"caravans":"yes","drinking_water":"yes","name":"Immelns Camping & Vandrarhem","power_supply":"yes","sanitary_dump_station":"yes","shower":"yes","tents":"yes","toilets":"yes","tourism":"camp_site","website":"https://immeln.camp/"}},{"type":"way","id":294202532,"center":{"lat":55.8818678,"lon":14.2535833},"tags":{"caravans":"yes","drinking_water":"yes","name":"Yngsjö Camping","power_supply":"yes","shower":"yes","tents":"yes","tourism":"camp_site"}},{"type":"way","id":294314405,"center":{"lat":55.3893303,"lon":14.0615881},"tags":{"capacity":"96","fee":"yes","name":"Kåseberga Ställplats","power_supply":"yes","reservation":"yes","sanitary_dump_station":"yes","tents":"yes","tourism":"caravan_site"}},{"type":"way","id":296910983,"center":{"lat":55.6908809,"lon":14.2152164},"tags":{"alt_name":"Kiviks Camping","caravans":"yes","drinking_water":"yes","internet_access":"no","name":"Kiviks Familjecamping","payment:cash":"yes","power_supply":"yes","sanitary_dump_station":"yes","shower":"yes","tents":"no","toilets":"yes","tourism":"camp_site","website":"https://www.kivikscamping.se/","wheelchair":"yes"}},{"type":"way","id":296910988,"center":{"lat":56.0570726,"lon":14.5510461},"tags":{"addr:city":"Sölvesborg","addr:housenumber":"20","addr:postcode":"294 77","addr:province":"Sölvesborg kommun","addr:street":"Valjeallén","caravans":"yes","drinking_water":"yes","email":"info@valjevikenscamping.com","fax":"+46 456 140 90","internet_access":"no","name":"Valjevikens Camping","nudism":"no","phone":"+46 456 140 90","power_supply":"yes","reservation":"no","sanitary_dump_station":"yes","shower":"yes","tents":"yes","toilets":"yes","tourism":"camp_site","website":"https://www.valjevikenscamping.se/","wheelchair":"yes"}},{"type":"way","id":296910992,"center":{"lat":56.0199497,"lon":14.1266137},"tags":{"addr:city":"Kristianstad","addr:country":"SE","addr:housenumber":"98","addr:postcode":"291 62","addr:street":"Slättängsvägen","caravans":"yes","drinking_water":"yes","email":"info@charlottsborgs-camping.se","internet_access":"wlan","internet_access:fee":"no","name":"Charlottsborgs Camping-Vandrarhem","power_supply":"yes","sanitary_dump_station":"yes","shower":"yes","stars":"2","tents":"yes","toilets":"yes","tourism":"camp_site","website":"https://charlottsborgs-camping.se/"}},{"type":"way","id":296912941,"center":{"lat":56.1521549,"lon":14.6752025},"tags":{"addr:city":"Sölvesborg","addr:country":"SE","addr:housenumber":"354","addr:postcode":"29493","addr:street":"Karlhamnsvägen","caravans":"yes","email":"alholmens@gmail.com","name":"Alholmens Bad & Camping","phone":"+46 454 52036","sanitary_dump_station":"customers","stars":"3","tents":"yes","tourism":"camp_site","website":"https://alholmens.se/"}},{"type":"way","id":334429184,"center":{"lat":55.5549888,"lon":14.3546043},"tags":{"amenity":"parking","motorhome":"yes","motorhome:overnight":"yes","parking":"surface","surface":"asphalt"}},{"type":"way","id":334429300,"center":{"lat":55.5695931,"lon":14.337466},"tags":{"cabins":"yes","camp_site":"serviced","caravans":"yes","email":"info@fritidosterlen.se","fee":"yes","name":"Tobisviks Camping","operator":"Fritid Österlen AB","phone":"+46 414 41 27 70","tents":"yes","tourism":"camp_site","website":"https://tobisvikscamping.se/"}},{"type":"way","id":363799969,"center":{"lat":56.5687663,"lon":14.1319134},"tags":{"caravans":"yes","contact:website":"https://en.firstcamp.se/destinations/sjostugan-almhult/cabins","drinking_water":"yes","fee":"yes","internet_access":"wlan","motorhome":"yes","name":"Sjöstugans Camping & Vandrarhem","openfire":"no","power_supply":"yes","sanitary_dump_station":"yes","surface":"grass","tents":"yes","toilets":"yes","tourism":"caravan_site","wheelchair":"limited"}},{"type":"way","id":417939402,"center":{"lat":56.1349199,"lon":13.1635154},"tags":{"caravans":"yes","drinking_water":"yes","name":"Elfdalens Camping","power_supply":"yes","shower":"yes","tents":"yes","toilets":"yes","tourism":"camp_site"}},{"type":"way","id":434930990,"center":{"lat":55.3736452,"lon":13.134454},"tags":{"charge":"250 SEK","fee":"yes","name":"Trelleborg Ställplats","payment:online_payment":"yes","power_supply":"yes","sanitary_dump_station":"yes","toilets":"yes","tourism":"caravan_site","water_point":"yes","website":"https://www.tallyweb.dk/stallplats-trelleborg/home","wheelchair":"yes"}},{"type":"way","id":437382779,"center":{"lat":56.2699404,"lon":12.5297504},"tags":{"caravans":"yes","check_date":"2025-07-17","drinking_water":"yes","fee":"yes","name":"Firstcamp Mölle – Höganäs","operator":"Firstcamp","power_supply":"yes","sanitary_dump_station":"yes","shower":"yes","tents":"yes","toilets":"yes","tourism":"camp_site","website":"https://firstcamp.se/destinationer/molle-hoganas"}},{"type":"way","id":441779156,"center":{"lat":55.7182373,"lon":12.5896213},"tags":{"caravan_site":"motorhome_stopover","caravan_site:type":"harbour","charge":"300 DKK","drinking_water":"yes","fee":"yes","internet_access":"wlan","internet_access:fee":"no","name":"Svanemøllehavnen","payment:maestro":"yes","power_supply":"yes","sanitary_dump_station":"yes","seasonal":"yes","toilets":"no","toilets:wheelchair":"yes","tourism":"caravan_site","website":"https://www.smhavn.dk/priser-autocampende/","wheelchair":"yes","wikimedia_commons":"File:Svanemøllehavnen motorhome stopover.jpg"}},{"type":"way","id":442099626,"center":{"lat":55.6718152,"lon":12.4335756},"tags":{"caravan_site":"motorhome_stopover","caravan_site:type":"camp_site","caravans":"no","charge":"187 DKK","drinking_water":"yes","fee":"yes","name":"DCU-Copenhagen Camp \"Absalon\"","tents":"no","toilets":"yes","tourism":"caravan_site","website":"https://www.dcu.dk/da/dcu-camping/koebenhavn-absalon","wikimedia_commons":"Category:DCU-Copenhagen Camp Absalon Autocamperplads"}},{"type":"way","id":464595981,"center":{"lat":56.352509,"lon":14.5923232},"tags":{"access":"yes","amenity":"parking","fee":"no","motorhome":"designated","parking":"surface"}},{"type":"way","id":494506962,"center":{"lat":56.4307182,"lon":12.6411445},"tags":{"caravans":"yes","drinking_water":"yes","internet_access":"wlan","name":"First Camp Torekov-Båstad","phone":"+46 431 364525","power_supply":"yes","shower":"yes","tents":"yes","toilets":"yes","tourism":"camp_site","website":"https://firstcamp.se/destination/torekov-bastad/"}},{"type":"way","id":494506963,"center":{"lat":56.4334274,"lon":12.6376009},"tags":{"caravans":"yes","drinking_water":"yes","internet_access":"wlan","name":"First Camp Torekov-Båstad","power_supply":"yes","shower":"yes","tents":"yes","toilets":"yes","tourism":"camp_site"}},{"type":"way","id":509680088,"center":{"lat":56.1818135,"lon":12.5580382},"tags":{"caravans":"yes","internet_access":"wlan","name":"Lerbergets Camping","tents":"yes","tourism":"camp_site"}},{"type":"way","id":514544826,"center":{"lat":55.6113823,"lon":12.3720827},"tags":{"camp_site":"serviced","caravans":"yes","fee":"yes","motor_vehicle":"yes","name":"Ishøj Strand Camping","operator":"Danhostel Ishøj Strand","phone":"+45 43535015","tents":"yes","tourism":"camp_site","wheelchair":"no"}},{"type":"way","id":516709257,"center":{"lat":56.1443534,"lon":14.5205663},"tags":{"caravans":"yes","contact:website":"http://wetlandi.se","drinking_water":"yes","fee":"yes","name":"Wetlandi","operator":"Wetlandi","tents":"no","tourism":"caravan_site"}},{"type":"way","id":609516484,"center":{"lat":55.5931316,"lon":14.1884907},"tags":{"amenity":"parking","motorhome":"yes","parking":"surface","surface":"gravel"}},{"type":"way","id":622325858,"center":{"lat":55.6259947,"lon":13.7220714},"tags":{"addr:city":"Sjöbo","addr:country":"SE","addr:housenumber":"13","addr:postcode":"275 34","addr:street":"Östergatan","caravans":"yes","email":"info@orebacken.se","name":"Orebackens Camping","phone":"+46 707 771937","power_supply":"yes","stars":"2","tents":"yes","tourism":"camp_site"}},{"type":"way","id":661009357,"center":{"lat":55.9060563,"lon":12.80881},"tags":{"addr:country":"SE","addr:housenumber":"30","addr:street":"Lill-Olas väg","caravans":"yes","drinking_water":"yes","name":"Borstahusens camping","shower":"yes","tents":"yes","tourism":"camp_site"}},{"type":"way","id":661355832,"center":{"lat":56.2753977,"lon":13.2938627},"tags":{"addr:city":"Örkelljunga","addr:country":"SE","addr:housenumber":"1","addr:postcode":"28621","addr:street":"Ålstigen","caravans":"yes","contact:email":"info@hjelmsjonscamping.se","contact:facebook":"https://www.facebook.com/hjelmsjocamping","contact:phone":"+46 435 48 38 00","internet_access":"wlan","internet_access:fee":"yes","name":"Hjelmsjö Camping","stars":"3","tents":"yes","toilets":"yes","tourism":"camp_site","website":"https://hjelmsjocamping.se/"}},{"type":"way","id":666445490,"center":{"lat":56.4334295,"lon":12.8311287},"tags":{"tourism":"caravan_site"}},{"type":"way","id":679914948,"center":{"lat":56.5180297,"lon":13.3321211},"tags":{"addr:city":"Knäred","addr:country":"SE","addr:housenumber":"17","addr:postcode":"31251","addr:street":"Flammavägen","caravans":"yes","contact:email":"flammabadetscamping@gmail.com","contact:phone":"+46 73 9419093","contact:website":"http://flammabadetscamping.com/","drinking_water":"yes","name":"Flammabadets Camping","power_supply":"yes","sanitary_dump_station":"no","shower":"yes","tents":"yes","toilets":"yes","tourism":"camp_site"}},{"type":"way","id":725880484,"center":{"lat":56.4560297,"lon":12.9192399},"tags":{"caravans":"yes","drinking_water":"yes","name":"Skummeslövsstrands Camping","power_supply":"yes","sanitary_dump_station":"yes","shower":"yes","tents":"yes","toilets":"yes","tourism":"camp_site"}},{"type":"way","id":725880487,"center":{"lat":56.4602607,"lon":12.9304631},"tags":{"caravans":"yes","name":"Skummeslövs Eko-Camping","tents":"yes","tourism":"camp_site","website":"https://skummeslovscamping.se/"}},{"type":"way","id":788231620,"center":{"lat":56.4536196,"lon":12.7835227},"tags":{"access":"yes","capacity":"159","contact:email":"norrviken-camp@caravanclub.se","contact:fax":"+46 431 369160","contact:phone":"+46 431 369170","contact:website":"http://caravanclub.se/","dog":"yes","internet_access":"wlan","name":"Caravan Club Norrviken","operator":"Caravan Club of Sweden","power_supply:maxcurrent":"10","source:info":"caravanclub.se","source:location":"caravanclub.se","tourism":"caravan_site","wheelchair":"yes"}},{"type":"way","id":838356969,"center":{"lat":56.5084154,"lon":13.0364673},"tags":{"access":"yes","fee":"no","parking":"surface","surface":"asphalt","tourism":"caravan_site"}},{"type":"way","id":844068511,"center":{"lat":55.4160203,"lon":12.8326887},"tags":{"access":"yes","amenity":"parking","capacity":"10","capacity:disabled":"0","fee":"yes","parking":"surface","power_supply":"yes","sanitary_dump_station":"customers","surface":"gravel","tourism":"caravan_site"}},{"type":"way","id":905727709,"center":{"lat":56.1175599,"lon":13.8264638},"tags":{"contact:website":"https://tykarpsgrottan.net/camping-stugor","internet_access":"wlan","internet_access:fee":"no","internet_access:ssid":"Tykarpsgrottan","name":"Tykarpsgrottan's Camping","tourism":"caravan_site"}},{"type":"way","id":918279479,"center":{"lat":55.595902,"lon":12.9327294},"tags":{"cabins":"no","fee":"yes","internet_access":"wlan","name":"Lagunen Husbilsparkering","power_supply":"yes","sanitary_dump_station":"yes","tents":"no","tourism":"caravan_site"}},{"type":"way","id":928931302,"center":{"lat":56.4383802,"lon":12.9152141},"tags":{"addr:city":"Båstad","addr:country":"SE","addr:housenumber":"128","addr:postcode":"26943","addr:street":"Norra Vägen","camp_site":"serviced","caravans":"yes","drinking_water":"yes","fee":"yes","name":"Båstad Camping","phone":"+46 431 75511","shower":"yes","tents":"yes","toilets":"yes","tourism":"camp_site","website":"https://www.bastadcamping.se/"}},{"type":"way","id":941890579,"center":{"lat":56.1165627,"lon":12.6060247},"tags":{"tourism":"caravan_site"}},{"type":"way","id":961285492,"center":{"lat":55.7097898,"lon":14.1679565},"tags":{"access":"yes","addr:city":"Kivik","addr:country":"SE","addr:housenumber":"1","addr:postcode":"27737","addr:street":"Ängdalavägen","caravans":"yes","drinking_water":"yes","email":"info@angdalacamping.se","fee":"unknown","name":"Ängdala Camping på Österlen","shower":"yes","tents":"yes","tourism":"camp_site","website":"https://www.angdalacamping.se/"}},{"type":"way","id":961340761,"center":{"lat":55.5954742,"lon":14.3104756},"tags":{"access":"customers","cabins":"yes","capacity":"20","caravans":"yes","currency:EUR":"yes","currency:SEK":"yes","email":"baskecamping@gmail.com","fee":"yes","motorhome":"yes","name":"Baskemölla Camping","operator":"Baskemölla Idrottsförening","payment:cash":"yes","payment:swish":"yes","phone":"+46 73 245 50 17","shower":"yes","tents":"yes","toilets":"yes","tourism":"camp_site","website":"http://www.xn--baskemllaif-wfb.se/"}},{"type":"way","id":975386471,"center":{"lat":56.5948513,"lon":14.7329019},"tags":{"cabins":"no","camp_site":"standard","caravans":"yes","email":"carina@haglind.com","name":"Rotahults NaturCamping","openfire":"yes","permanent_camping":"no","phone":"+46 477 24053","power_supply":"no","source":"bing","static_caravans":"no","tents":"yes","toilets":"yes","tourism":"camp_site","website":"http://www.smaland-check-in.se/check-in2/svenska/boende/rotahult.htm"}},{"type":"way","id":1043407790,"center":{"lat":56.0275822,"lon":14.5619736},"tags":{"addr:city":"Sölvesborg","addr:postcode":"29436","addr:street":"Tredenborgevägen","cabins":"yes","capacity:cabins":"19","capacity:pitches":"220","caravans":"yes","drinking_water":"yes","email":"info@tredenborgscamping.com","name":"Tredenborgs camping","phone":"+46 456 12116","power_supply":"yes","shower":"yes","tents":"yes","toilets":"yes","tourism":"camp_site","website":"https://tredenborg.com/"}},{"type":"way","id":1079605467,"center":{"lat":55.6704895,"lon":12.6240838},"tags":{"bicycle_rental":"yes","capacity":"74","caravans":"no","charge":"260 DKK","check_out":"12:00","fee":"yes","internet_access":"wlan","internet_access:fee":"customers","name":"Citycamp cph","opening_hours":"Jun-Aug","power_supply":"yes","power_supply:charge":"35 DKK","reservation":"no","sanitary_dump_station":"yes","seasonal":"yes","shower":"yes","tents":"no","toilets":"yes","tourism":"caravan_site","water_point":"yes","website":"https://www.citycamp.dk/"}},{"type":"way","id":1082740270,"center":{"lat":56.2946621,"lon":12.4834124},"tags":{"amenity":"parking","capacity":"4","motorhome":"designated","opening_hours":"06:00-22:00","parking":"street_side"}},{"type":"way","id":1083289906,"center":{"lat":55.7166553,"lon":13.1736072},"tags":{"access":"no","amenity":"parking","capacity":"2","capacity:disabled":"0","fee":"no","motorhome":"designated","parking":"lane","surface":"asphalt"}},{"type":"way","id":1083885954,"center":{"lat":56.5017483,"lon":12.943919},"tags":{"addr:city":"Mellbystrand","addr:country":"SE","addr:housenumber":"10","addr:postcode":"312 61","addr:street":"Kaninvägen","cabins":"yes","caravans":"yes","drinking_water":"yes","email":"info@havsstugorna.se","fee":"yes","kitchen":"yes","lit":"yes","name":"Havsstugorna","operator":"Bo-Göran, Lena, Jens-Peter.","phone":"+46 72 971 83 16","reservation":"recommended","shower":"yes","tents":"yes","toilets":"yes","tourism":"camp_site","website":"https://www.havsstugorna.se"}},{"type":"way","id":1135177583,"center":{"lat":55.6418696,"lon":12.6493996},"tags":{"caravan_site":"motorhome_stopover","caravan_site:type":"harbour","charge":"DKK 245","description":"in winter also motorhome parking at the waterfront just north of here","fee":"yes","internet_access":"wlan","internet_access:fee":"no","laundry":"yes","name":"Kastrup Lystbådehavn","opening_hours":"24/7","operator":"Kastrup Lystbådehavn","power_supply":"yes","power_supply:charge":"2 DKK/kWh","reservation":"no","sanitary_dump_station":"customers","seasonal":"no","shower":"yes","tents":"no","toilets":"yes","tourism":"caravan_site","water_point":"yes","website":"https://www.havneguide.dk/havn/kastrup-ny-lystbaadehavn","wikimedia_commons":"Category:Kastrup Lystbådehavn autocamperplads"}},{"type":"way","id":1176936971,"center":{"lat":55.5841858,"lon":12.9195301},"tags":{"addr:city":"Limhamn","addr:street":"Vågbrytarvägen","cabins":"no","capacity":"100","fee":"300 SKR","internet_access":"wlan","internet_access:fee":"no","name":"Småbåtshamnen i Limhamn AB","operator":"Småbåtshamnen i Limhamn AB","power_supply":"yes","reservation":"recommended","sanitary_dump_station":"customers","tents":"no","tourism":"caravan_site","website":"https://booking.smabatshamnen.se/en/","wheelchair":"limited"}},{"type":"way","id":1178407187,"center":{"lat":56.0032657,"lon":14.7373319},"tags":{"charge":"220 SKR / day","fee":"yes","internet_access":"wlan","name":"Ställplats Nogersunds Hamn","power_supply":"yes","sanitary_dump_station":"yes","tourism":"caravan_site","website":"https://nogersundshamn.se/"}},{"type":"way","id":1193186649,"center":{"lat":56.4982109,"lon":13.6191752},"tags":{"access":"yes","caravans":"yes","charge":"150SEK","fee":"yes","payment:cash":"yes","static_caravans":"yes","tents":"no","tourism":"camp_site"}},{"type":"way","id":1199726148,"center":{"lat":55.5266766,"lon":13.9042765},"tags":{"amenity":"parking","fee":"no","motorhome":"yes","motorhome:overnight":"yes","parking":"surface","picnic_table":"yes","surface":"compacted"}},{"type":"way","id":1257784191,"center":{"lat":56.2249501,"lon":12.540964},"tags":{"capacity:caravans":"18","capacity:tents":"5","caravans":"yes","dog":"yes","drinking_water":"yes","dryer":"yes","internet_access":"yes","internet_access:fee":"no","name":"Destination Strandbaden","power_supply":"yes","sanitary_dump_station":"yes","shower":"yes","tents":"yes","toilets":"yes","tourism":"camp_site","washing_machine":"yes","website":"https://www.visitorestrand.se/english/camping-eng","wheelchair":"yes"}},{"type":"way","id":1290099943,"center":{"lat":55.4906309,"lon":14.3070316},"tags":{"capacity":"30","caravan_site":"motorhome_stopover","caravan_site:type":"farm","charge":"150 SEK","fee":"yes","name":"Ställplats Hammarlunda","power_supply":"yes","power_supply:capacity":"30","sanitary_dump_station":"yes","seasonal":"no","toilets":"yes","tourism":"caravan_site","water_point":"yes"}},{"type":"way","id":1290115435,"center":{"lat":55.5938357,"lon":13.5156955},"tags":{"capacity":"14","caravan_site":"motorhome_stopover","caravan_site:type":"golf","caravans":"yes","charge":"300 SEK","fee":"yes","motorhome":"yes","name":"Romeleåsens Golfklubb Husbilar","power_supply":"yes","power_supply:fee":"no","reservation":"yes","tents":"no","tourism":"caravan_site","website":"https://ragk.se/boende/stallplats-for-husbil-och-husvagn/"}},{"type":"way","id":1290116551,"center":{"lat":55.424907,"lon":13.7874918},"tags":{"caravan_site":"motorhome_stopover","caravan_site:type":"beach","caravans":"yes","charge":"100 SEK","fee":"yes","maxstay":"24 hours","name":"Ystads Reningsverket","power_supply":"yes","seasonal":"no","tents":"no","tourism":"caravan_site"}},{"type":"way","id":1290118511,"center":{"lat":55.8008758,"lon":13.7302434},"tags":{"capacity":"15","charge":"100 SEK","fee":"yes","name":"Kulturhuset Öster Sallerup","power_supply":"no","seasonal":"no","toilets":"yes","tourism":"caravan_site","water_point":"yes","website":"https://www.kulturhusetosallerup.com/post/st%C3%A4llplatser-f%C3%B6r-husbilar"}},{"type":"way","id":1290201470,"center":{"lat":55.685541,"lon":14.2249587},"tags":{"amenity":"parking","motorhome":"designated","opening_hours":"Jun-Aug 08:00-21:00","operator":"Simrishamns kommun","parking":"surface","surface":"asphalt"}},{"type":"way","id":1292038975,"center":{"lat":56.3008932,"lon":12.4570229},"tags":{"amenity":"parking","motorhome":"designated","opening_hours":"06:00-22:00","parking":"surface"}},{"type":"way","id":1292038976,"center":{"lat":56.3001782,"lon":12.4673341},"tags":{"amenity":"parking","caravans":"yes","motorhome":"designated","opening_hours":"06:00-22:00","parking":"surface","surface":"compacted"}},{"type":"way","id":1379085451,"center":{"lat":55.943909,"lon":12.771312},"tags":{"tourism":"caravan_site"}},{"type":"way","id":1385534775,"center":{"lat":56.4741534,"lon":12.9927327},"tags":{"addr:city":"Laholm","addr:country":"SE","addr:housenumber":"62","addr:postcode":"312 96","addr:street":"Lögnäsvägen","caravans":"yes","contact:email":"info@lognasgard.se","contact:phone":"+46 430 23076","contact:website":"https://www.lognasgard.se/camping/","name":"Lögnäs gård","sanitary_dump_station":"yes","tents":"yes","tourism":"camp_site"}},{"type":"way","id":1388193317,"center":{"lat":56.4644271,"lon":13.6016385},"tags":{"caravans":"yes","drinking_water":"yes","name":"Jetesjöns Camping","power_supply":"yes","sanitary_dump_station":"yes","shower":"yes","tents":"yes","toilets":"yes","tourism":"camp_site"}},{"type":"way","id":1396453505,"center":{"lat":55.8589052,"lon":12.8525229},"tags":{"capacity":"100","fee":"yes","internet_access":"wlan","power_supply":"yes","sanitary_dump_station":"yes","tourism":"caravan_site"}},{"type":"way","id":1426680158,"center":{"lat":56.1988554,"lon":12.7002028},"tags":{"cabins":"no","capacity":"50","fee":"yes","name":"Paradiset på Kulla","payment:description":"payment by website https://www.campcation.com/sv/campsite/paradiset-pa-kulla","permanent_camping":"no","power_supply":"yes","sanitary_dump_station":"yes","tents":"no","tourism":"caravan_site","water_point":"yes"}},{"type":"way","id":1463934565,"center":{"lat":56.2618008,"lon":13.1528981},"tags":{"addr:street":"Brekillevägen","caravans":"yes","drinking_water":"yes","internet_access":"wlan","name":"Persköps ställplats","power_supply":"yes","reservation":"no","sanitary_dump_station":"customers","shower":"yes","tents":"no","toilets":"yes","tourism":"camp_site","website":"https://www.perskopsstallplats.com/"}},{"type":"way","id":1498233923,"center":{"lat":56.0776384,"lon":14.0829929},"tags":{"motorhome":"designated","power_supply":"yes","sanitary_dump_station":"no","tents":"no","toilets":"no","tourism":"caravan_site"}},{"type":"relation","id":10885375,"center":{"lat":56.3956214,"lon":13.168074},"tags":{"addr:city":"Våxtorp","addr:country":"SE","addr:housenumber":"3","addr:place":"Kolbäckstorp","addr:postcode":"31298","caravans":"yes","contact:phone":"+46 430 331 29","contact:website":"https://www.naturcamping.com/","fee":"yes","name":"Våxtorp Naturcamping","power_supply":"yes","shower":"yes","tents":"yes","toilets":"yes","tourism":"camp_site","type":"multipolygon"}},{"type":"relation","id":10885388,"center":{"lat":56.0398326,"lon":13.2569029},"tags":{"caravans":"yes","fee":"yes","name":"Skäralids Camping","power_supply":"yes","shower":"yes","tents":"yes","toilets":"yes","tourism":"camp_site","type":"multipolygon","website":"https://www.skaralidscamping.se/"}},{"type":"relation","id":10885392,"center":{"lat":55.9021922,"lon":13.5645184},"tags":{"addr:city":"Höör","addr:country":"SE","addr:housenumber":"1","addr:postcode":"243 23","addr:street":"Fiskaregränd","caravans":"yes","email":"camping@jagersbo.se","fee":"yes","internet_access":"wlan","name":"Jägersbo Camping","phone":"+46 413 55 44 90","sanitary_dump_station":"customers","shower":"yes","stars":"3","tents":"yes","toilets":"yes","tourism":"camp_site","type":"multipolygon","website":"https://www.jagersbocamping.se/"}},{"type":"relation","id":17996407,"center":{"lat":55.6898079,"lon":13.0589392},"tags":{"addr:city":"Lomma","addr:country":"SE","addr:postcode":"23434","addr:street":"Västkustvägen","backcountry":"no","caravans":"yes","contact:email":"info@lommacamping.se","contact:website":"https://lommacamping.se/","drinking_water":"yes","fee":"yes","internet_access":"no","lit":"yes","motor_vehicle":"yes","name":"Lomma Camping","power_supply":"yes","shower":"yes","tents":"yes","toilets":"yes","tourism":"camp_site","type":"multipolygon"}}]}
